{
    "places": {
        "Pizze a Taglio Criminali": [
            {
                "id": 1,
                "name": "Agostino",
                "description": null,
                "position_link": "https://tinyurl.com/y452rvur",
                "evaluation": 8.5,
                "coordinates": {
                    "lat": 41.919841,
                    "lng": 12.508648
                }
            },
            {
                "id": 2,
                "name": "Pizza dal 1960",
                "description": null,
                "position_link": "https://tinyurl.com/yxnyolts",
                "evaluation": 7.5,
                "coordinates": {
                    "lat": 41.911117,
                    "lng": 12.518437
                }
            },
            {
                "id": 3,
                "name": "Pizzeria Ternana",
                "description": null,
                "position_link": "https://tinyurl.com/y28gcovy",
                "evaluation": 7.0,
                "coordinates": {
                    "lat": 41.91325,
                    "lng": 12.504834
                }
            },
            {
                "id": 4,
                "name": "Rosticceria Pizzeria Al Buchetto",
                "description": null,
                "position_link": "https://tinyurl.com/y23bkzy7",
                "evaluation": 6.0,
                "coordinates": {
                    "lat": 41.919171,
                    "lng": 12.498241
                }
            },
            {
                "id": 5,
                "name": "Da Giustina",
                "description": null,
                "position_link": "https://tinyurl.com/y62voo52",
                "evaluation": 6.5,
                "coordinates": {
                    "lat": 41.881619,
                    "lng": 12.560921
                }
            },
            {
                "id": 6,
                "name": "Pizza e Fichi",
                "description": null,
                "position_link": "https://tinyurl.com/y4alpxu4",
                "evaluation": 8.75,
                "coordinates": {
                    "lat": 41.891677,
                    "lng": 12.559001
                }
            },
            {
                "id": 7,
                "name": "Angelo Pizza",
                "description": null,
                "position_link": "https://tinyurl.com/y5uqwh88",
                "evaluation": 5.0,
                "coordinates": {
                    "lat": 41.895326,
                    "lng": 12.559245
                }
            },
            {
                "id": 8,
                "name": "Non Ci Resta Che Pizza",
                "description": null,
                "position_link": "https://tinyurl.com/yxqu2aj7",
                "evaluation": 6.5,
                "coordinates": {
                    "lat": 41.765423,
                    "lng": 12.230732
                }
            },
            {
                "id": 9,
                "name": "Pizza al Porto",
                "description": null,
                "position_link": "https://tinyurl.com/y6j8b2xg",
                "evaluation": 7.5,
                "coordinates": {
                    "lat": 41.771478,
                    "lng": 12.224559
                }
            },
            {
                "id": 10,
                "name": "Sancho Dal 1969",
                "description": null,
                "position_link": "https://tinyurl.com/y2pxygrn",
                "evaluation": 8.5,
                "coordinates": {
                    "lat": 41.77136,
                    "lng": 12.22911
                }
            },
            {
                "id": 11,
                "name": "Il Ternano",
                "description": null,
                "position_link": "https://tinyurl.com/yxdrjc9e",
                "evaluation": 5.75,
                "coordinates": {
                    "lat": 41.949898,
                    "lng": 12.526072
                }
            },
            {
                "id": 12,
                "name": "Pizza Rustica Girarrosto e...",
                "description": null,
                "position_link": "https://tinyurl.com/y6ham7ma",
                "evaluation": 6.75,
                "coordinates": {
                    "lat": 41.946991,
                    "lng": 12.525741
                }
            },
            {
                "id": 13,
                "name": "Il Muretto",
                "description": null,
                "position_link": "https://tinyurl.com/yyrwovzp",
                "evaluation": 7.5,
                "coordinates": {
                    "lat": 41.948068,
                    "lng": 12.533879
                }
            },
            {
                "id": 14,
                "name": "Mattarello d'Oro",
                "description": null,
                "position_link": "https://tinyurl.com/y465734y",
                "evaluation": 8.25,
                "coordinates": {
                    "lat": 41.952221,
                    "lng": 12.543332
                }
            },
            {
                "id": 15,
                "name": "Il Cacciatore",
                "description": null,
                "position_link": "https://tinyurl.com/y4l5bspx",
                "evaluation": 4.5,
                "coordinates": {
                    "lat": 41.944706,
                    "lng": 12.517785
                }
            },
            {
                "id": 16,
                "name": "I Gemelli",
                "description": null,
                "position_link": "https://tinyurl.com/y37sfwkl",
                "evaluation": 7.5,
                "coordinates": {
                    "lat": 41.855565,
                    "lng": 12.476744
                }
            },
            {
                "id": 17,
                "name": "Strapizzami",
                "description": null,
                "position_link": "https://tinyurl.com/y2gs8bdg",
                "evaluation": 6.5,
                "coordinates": {
                    "lat": 41.856144,
                    "lng": 12.478794
                }
            },
            {
                "id": 18,
                "name": "Quattro Stagioni",
                "description": null,
                "position_link": "https://tinyurl.com/y25ne7et",
                "evaluation": 9.0,
                "coordinates": {
                    "lat": 41.863561,
                    "lng": 12.4669
                }
            },
            {
                "id": 19,
                "name": "Mondo Pizza",
                "description": null,
                "position_link": "https://tinyurl.com/y2msa8f9",
                "evaluation": 5.5,
                "coordinates": {
                    "lat": 41.865008,
                    "lng": 12.466218
                }
            },
            {
                "id": 20,
                "name": "Imperatori dal 1972",
                "description": null,
                "position_link": "https://tinyurl.com/y23wrr4v",
                "evaluation": 6.0,
                "coordinates": {
                    "lat": 41.863304,
                    "lng": 12.467427
                }
            },
            {
                "id": 21,
                "name": "Pizza Fantasy",
                "description": null,
                "position_link": "https://tinyurl.com/y6gbrrx7",
                "evaluation": 5.0,
                "coordinates": {
                    "lat": 41.864222,
                    "lng": 12.470752
                }
            },
            {
                "id": 22,
                "name": "Disneypizza",
                "description": null,
                "position_link": "https://tinyurl.com/y3ofmfye",
                "evaluation": 7.25,
                "coordinates": {
                    "lat": 41.873359,
                    "lng": 12.447973
                }
            },
            {
                "id": 23,
                "name": "Pizza Barrilli",
                "description": null,
                "position_link": "https://tinyurl.com/y2cy392y",
                "evaluation": 5.0,
                "coordinates": {
                    "lat": 41.880299,
                    "lng": 12.46083
                }
            },
            {
                "id": 24,
                "name": "Pizzeria da Simone",
                "description": null,
                "position_link": "https://tinyurl.com/y3ltqbjh",
                "evaluation": 6.5,
                "coordinates": {
                    "lat": 41.884861,
                    "lng": 12.460765
                }
            },
            {
                "id": 25,
                "name": "Pizzeria Eligio Fattori",
                "description": null,
                "position_link": "https://tinyurl.com/y5e6qyrf",
                "evaluation": 6.0,
                "coordinates": {
                    "lat": 41.882657,
                    "lng": 12.456646
                }
            },
            {
                "id": 26,
                "name": "Squisipizza",
                "description": null,
                "position_link": "https://tinyurl.com/y5fg7kyu",
                "evaluation": 7.0,
                "coordinates": {
                    "lat": 41.873392,
                    "lng": 12.619338
                }
            },
            {
                "id": 27,
                "name": "Io e Valter",
                "description": null,
                "position_link": "https://tinyurl.com/y6dbqsfr",
                "evaluation": 9.25,
                "coordinates": {
                    "lat": 41.867824,
                    "lng": 12.631433
                }
            },
            {
                "id": 28,
                "name": "Pizzeria al 136",
                "description": null,
                "position_link": "https://tinyurl.com/y4jb7ouv",
                "evaluation": 4.0,
                "coordinates": {
                    "lat": 41.868628,
                    "lng": 12.641835
                }
            },
            {
                "id": 29,
                "name": "Pizza Grand Gourmet",
                "description": null,
                "position_link": "https://tinyurl.com/y4yb2xpj",
                "evaluation": 6.0,
                "coordinates": {
                    "lat": 41.920888,
                    "lng": 12.457496
                }
            },
            {
                "id": 30,
                "name": "Popeye Pizza",
                "description": null,
                "position_link": "https://tinyurl.com/y4bkjej7",
                "evaluation": 5.25,
                "coordinates": {
                    "lat": 41.912677,
                    "lng": 12.454164
                }
            },
            {
                "id": 31,
                "name": "Eroi Della Pizza",
                "description": null,
                "position_link": "https://tinyurl.com/y5vpquub",
                "evaluation": 7.75,
                "coordinates": {
                    "lat": 41.908855,
                    "lng": 12.449339
                }
            },
            {
                "id": 32,
                "name": "Mamma Pizza",
                "description": null,
                "position_link": "https://tinyurl.com/y57pj9n6",
                "evaluation": 6.25,
                "coordinates": {
                    "lat": 41.912559,
                    "lng": 12.570764
                }
            },
            {
                "id": 33,
                "name": "Tiella",
                "description": null,
                "position_link": "https://tinyurl.com/y5pzmjra",
                "evaluation": 9.0,
                "coordinates": {
                    "lat": 41.910768,
                    "lng": 12.569008
                }
            },
            {
                "id": 34,
                "name": "Pezzo",
                "description": null,
                "position_link": "https://tinyurl.com/y4tdmonb",
                "evaluation": 7.25,
                "coordinates": {
                    "lat": 41.898648,
                    "lng": 12.563797
                }
            },
            {
                "id": 35,
                "name": "Forno De Carolis",
                "description": null,
                "position_link": "https://tinyurl.com/y4pwgv3f",
                "evaluation": 9.0,
                "coordinates": {
                    "lat": 41.844306,
                    "lng": 12.436136
                }
            },
            {
                "id": 36,
                "name": "Pizzeria Rosticceria Da Checco",
                "description": null,
                "position_link": "https://tinyurl.com/yxu7ndlw",
                "evaluation": 6.75,
                "coordinates": {
                    "lat": 41.844747,
                    "lng": 12.435493
                }
            },
            {
                "id": 37,
                "name": "Pizza Rustica di Giovanni Filomena",
                "description": null,
                "position_link": "https://tinyurl.com/y6rnocx2",
                "evaluation": 7.75,
                "coordinates": {
                    "lat": 41.843533,
                    "lng": 12.441762
                }
            },
            {
                "id": 38,
                "name": "Colle del Sole Pizza Rustica",
                "description": null,
                "position_link": "https://tinyurl.com/yy97r7pz",
                "evaluation": 5.5,
                "coordinates": {
                    "lat": 41.836667,
                    "lng": 12.430864
                }
            },
            {
                "id": 39,
                "name": "Da Gianni al Mattone",
                "description": null,
                "position_link": "https://tinyurl.com/y5mzll9u",
                "evaluation": 10.0,
                "coordinates": {
                    "lat": 41.908564,
                    "lng": 12.413756
                }
            },
            {
                "id": 40,
                "name": "Pizzeria da Pasquale",
                "description": null,
                "position_link": "https://tinyurl.com/y6ke7tnr",
                "evaluation": 6.0,
                "coordinates": {
                    "lat": 41.904732,
                    "lng": 12.42385
                }
            },
            {
                "id": 41,
                "name": "Pizza Art",
                "description": null,
                "position_link": "https://tinyurl.com/y37wxn4p",
                "evaluation": 7.25,
                "coordinates": {
                    "lat": 41.901622,
                    "lng": 12.427372
                }
            },
            {
                "id": 42,
                "name": "Pizzeria da Simone Malatesta",
                "description": null,
                "position_link": "https://tinyurl.com/y574cxjf",
                "evaluation": 5.75,
                "coordinates": {
                    "lat": 41.887378,
                    "lng": 12.53544
                }
            },
            {
                "id": 43,
                "name": "La Teglia",
                "description": null,
                "position_link": "https://tinyurl.com/y44wa8dn",
                "evaluation": 7.0,
                "coordinates": {
                    "lat": 41.886588,
                    "lng": 12.54011
                }
            },
            {
                "id": 44,
                "name": "Pizzeria Daniela al Pigneto",
                "description": null,
                "position_link": "https://tinyurl.com/y4nrpmoy",
                "evaluation": 4.0,
                "coordinates": {
                    "lat": 41.888426,
                    "lng": 12.529158
                }
            },
            {
                "id": 45,
                "name": "Alberto dal 1968",
                "description": null,
                "position_link": "https://tinyurl.com/y6tsfkcg",
                "evaluation": 8.5,
                "coordinates": {
                    "lat": 41.867445,
                    "lng": 12.490768
                }
            },
            {
                "id": 46,
                "name": "Pizza Luigi",
                "description": null,
                "position_link": "https://tinyurl.com/yy6d3bhb",
                "evaluation": 8.75,
                "coordinates": {
                    "lat": 41.870965,
                    "lng": 12.481845
                }
            },
            {
                "id": 47,
                "name": "Stellina Garbatella",
                "description": null,
                "position_link": "https://tinyurl.com/y5nj8do2",
                "evaluation": 5.0,
                "coordinates": {
                    "lat": 41.864406,
                    "lng": 12.483949
                }
            },
            {
                "id": 48,
                "name": "Bottega Popolare",
                "description": null,
                "position_link": "https://tinyurl.com/y4fs96lb",
                "evaluation": 7.0,
                "coordinates": {
                    "lat": 41.895552,
                    "lng": 12.477389
                }
            },
            {
                "id": 49,
                "name": "Bona - Pizza romana in teglia",
                "description": null,
                "position_link": "https://tinyurl.com/y6fxkh3y",
                "evaluation": 7.5,
                "coordinates": {
                    "lat": 41.895844,
                    "lng": 12.478612
                }
            },
            {
                "id": 50,
                "name": "Pizzeria Minerva",
                "description": null,
                "position_link": "https://tinyurl.com/y2rrpx58",
                "evaluation": 0.0,
                "coordinates": {
                    "lat": 41.898721,
                    "lng": 12.477364
                }
            },
            {
                "id": 51,
                "name": "King's Sandwich",
                "description": null,
                "position_link": "https://tinyurl.com/y5ygm6ue",
                "evaluation": 1.0,
                "coordinates": {
                    "lat": 41.897516,
                    "lng": 12.47635
                }
            },
            {
                "id": 52,
                "name": "Pizza Florida",
                "description": null,
                "position_link": "https://tinyurl.com/y5dgqyyx",
                "evaluation": 6.5,
                "coordinates": {
                    "lat": 41.894775,
                    "lng": 12.476738
                }
            },
            {
                "id": 53,
                "name": "Pizzeria da Santino",
                "description": null,
                "position_link": "https://tinyurl.com/y4tq6jmk",
                "evaluation": 5.0,
                "coordinates": {
                    "lat": 41.867603,
                    "lng": 12.5271472
                }
            },
            {
                "id": 54,
                "name": "Voglia di Pizza da Baffo Roma",
                "description": null,
                "position_link": "https://tinyurl.com/y2npgmy5",
                "evaluation": 7.5,
                "coordinates": {
                    "lat": 41.869565,
                    "lng": 12.5285683
                }
            },
            {
                "id": 55,
                "name": "PizzaDi Roma",
                "description": null,
                "position_link": "https://tinyurl.com/yxr6yfyc",
                "evaluation": 7.0,
                "coordinates": {
                    "lat": 41.8698163,
                    "lng": 12.5297655
                }
            },
            {
                "id": 56,
                "name": "Pizzeria Da Rufino",
                "description": null,
                "position_link": "https://tinyurl.com/y27fub5o",
                "evaluation": 4.0,
                "coordinates": {
                    "lat": 41.8730142,
                    "lng": 12.528842
                }
            },
            {
                "id": 57,
                "name": "Pizzeria Gabry di Mirasoli Remo Roma",
                "description": null,
                "position_link": "https://tinyurl.com/y62nyaxk",
                "evaluation": 8.0,
                "coordinates": {
                    "lat": 41.873668,
                    "lng": 12.5293323
                }
            },
            {
                "id": 58,
                "name": "Luciani Gabriele",
                "description": null,
                "position_link": "https://tinyurl.com/y6j5oa7n",
                "evaluation": 6.5,
                "coordinates": {
                    "lat": 41.8620016,
                    "lng": 12.563558
                }
            },
            {
                "id": 59,
                "name": "Alasia Pizzeria",
                "description": null,
                "position_link": "https://tinyurl.com/y5s5gmxz",
                "evaluation": 4.0,
                "coordinates": {
                    "lat": 41.8610107,
                    "lng": 12.5656628
                }
            },
            {
                "id": 60,
                "name": "Pizza a Domicilio | A Casa Mia",
                "description": null,
                "position_link": "https://tinyurl.com/y6tf8oyb",
                "evaluation": 7.25,
                "coordinates": {
                    "lat": 41.8570988,
                    "lng": 12.5627822
                }
            },
            {
                "id": 61,
                "name": "La Bottega del Pizzolaio - Tuscolana",
                "description": null,
                "position_link": "https://tinyurl.com/y5fo7wrg",
                "evaluation": 5.0,
                "coordinates": {
                    "lat": 41.8534075,
                    "lng": 12.5647148
                }
            },
            {
                "id": 62,
                "name": "Pizzeria Pino E Nando",
                "description": null,
                "position_link": "https://tinyurl.com/y4vjbvr3",
                "evaluation": 7.5,
                "coordinates": {
                    "lat": 41.8323505,
                    "lng": 12.5994207
                }
            },
            {
                "id": 63,
                "name": "Ippo Pizza",
                "description": null,
                "position_link": "https://tinyurl.com/y38tamz4",
                "evaluation": 4.0,
                "coordinates": {
                    "lat": 41.9372052,
                    "lng": 12.4672497
                }
            },
            {
                "id": 64,
                "name": "SEMENTI LA PIZZA",
                "description": null,
                "position_link": "https://tinyurl.com/y2pmctaq",
                "evaluation": 4.0,
                "coordinates": {
                    "lat": 41.9375679,
                    "lng": 12.4656372
                }
            },
            {
                "id": 65,
                "name": "Pizzeria il derby",
                "description": null,
                "position_link": "https://tinyurl.com/y3smoblh",
                "evaluation": 5.0,
                "coordinates": {
                    "lat": 41.9309296,
                    "lng": 12.4653435
                }
            },
            {
                "id": 66,
                "name": "Pizza Rustica",
                "description": null,
                "position_link": "https://tinyurl.com/yy6qjv74",
                "evaluation": 8.25,
                "coordinates": {
                    "lat": 41.9125825,
                    "lng": 12.475735
                }
            },
            {
                "id": 67,
                "name": "Pizza Art",
                "description": null,
                "position_link": "https://tinyurl.com/y38ym3h8",
                "evaluation": 6.75,
                "coordinates": {
                    "lat": 41.9134236,
                    "lng": 12.4415085
                }
            },
            {
                "id": 68,
                "name": "Mister Teglia Balduina",
                "description": null,
                "position_link": "https://tinyurl.com/y59pthds",
                "evaluation": 7.25,
                "coordinates": {
                    "lat": 41.920228,
                    "lng": 12.441579
                }
            },
            {
                "id": 69,
                "name": "Da Tullio Pizza",
                "description": null,
                "position_link": "https://tinyurl.com/yysk2uhs",
                "evaluation": 6.5,
                "coordinates": {
                    "lat": 41.9227467,
                    "lng": 12.4384545
                }
            },
            {
                "id": 70,
                "name": "La Pizza Di Angelino",
                "description": null,
                "position_link": "https://tinyurl.com/y32292ko",
                "evaluation": 7.75,
                "coordinates": {
                    "lat": 41.9358505,
                    "lng": 12.4376293
                }
            },
            {
                "id": 71,
                "name": "Arte Bianca di Gabriele",
                "description": null,
                "position_link": "https://tinyurl.com/y4egs8k4",
                "evaluation": 8.0,
                "coordinates": {
                    "lat": 41.9369444,
                    "lng": 12.4379226
                }
            },
            {
                "id": 72,
                "name": "Sale e Ojo",
                "description": null,
                "position_link": "https://tinyurl.com/2hnor8rw",
                "evaluation": 8.75,
                "coordinates": {
                    "lat": 41.8487167,
                    "lng": 12.4610768
                }
            },
            {
                "id": 73,
                "name": "W300",
                "description": null,
                "position_link": "https://tinyurl.com/2m2q744t",
                "evaluation": 7.75,
                "coordinates": {
                    "lat": 41.8598207,
                    "lng": 12.4565815
                }
            },
            {
                "id": 74,
                "name": "Pizzeria R. Giusi",
                "description": null,
                "position_link": "https://tinyurl.com/2y3xr48j",
                "evaluation": 4.5,
                "coordinates": {
                    "lat": 41.8345845,
                    "lng": 12.5581196
                }
            },
            {
                "id": 75,
                "name": "Pizza Gege' Appia",
                "description": null,
                "position_link": "https://tinyurl.com/22kk5h4q",
                "evaluation": 6.0,
                "coordinates": {
                    "lat": 41.8398438,
                    "lng": 12.5519645
                }
            },
            {
                "id": 76,
                "name": "Mercato Spinaceto",
                "description": null,
                "position_link": "https://tinyurl.com/253v9sg2",
                "evaluation": 8.5,
                "coordinates": {
                    "lat": 41.7829609,
                    "lng": 12.4419187
                }
            },
            {
                "id": 77,
                "name": "Pizza Gege' Eur",
                "description": null,
                "position_link": "https://tinyurl.com/27ar9g9g",
                "evaluation": 6.0,
                "coordinates": {
                    "lat": 41.8264197,
                    "lng": 12.4780023
                }
            },
            {
                "id": 78,
                "name": "Lievito",
                "description": null,
                "position_link": "https://tinyurl.com/2ase8tpc",
                "evaluation": 7.0,
                "coordinates": {
                    "lat": 41.8298237,
                    "lng": 12.4737904
                }
            },
            {
                "id": 79,
                "name": "Chicco di Grano",
                "description": null,
                "position_link": "https://tinyurl.com/2yy4zney",
                "evaluation": 6.75,
                "coordinates": {
                    "lat": 41.943851,
                    "lng": 12.6002971
                }
            },
            {
                "id": 80,
                "name": "Il Sagittario",
                "description": null,
                "position_link": "https://tinyurl.com/2ahv5fhv",
                "evaluation": 4.0,
                "coordinates": {
                    "lat": 41.9453816,
                    "lng": 12.6007464
                }
            },
            {
                "id": 81,
                "name": "L' Arte della Pizza",
                "description": null,
                "position_link": "https://tinyurl.com/265tpk8y",
                "evaluation": 6.0,
                "coordinates": {
                    "lat": 41.9476369,
                    "lng": 12.6008039
                }
            },
            {
                "id": 82,
                "name": "Pizzeria Grano13 Roma",
                "description": null,
                "position_link": "https://tinyurl.com/2yhv9gg4",
                "evaluation": 5.75,
                "coordinates": {
                    "lat": 41.7331646,
                    "lng": 12.2784596
                }
            },
            {
                "id": 83,
                "name": "Pizza A Doc Number 2 Lido Di Ostia",
                "description": null,
                "position_link": "https://tinyurl.com/2cpb9zzy",
                "evaluation": 4.0,
                "coordinates": {
                    "lat": 41.735655,
                    "lng": 12.2651331
                }
            },
            {
                "id": 84,
                "name": "Pizza in Piazza",
                "description": null,
                "position_link": "https://tinyurl.com/2yoql3mt",
                "evaluation": 8.5,
                "coordinates": {
                    "lat": 41.7320612,
                    "lng": 12.2740462
                }
            },
            {
                "id": 85,
                "name": "Il Tempio",
                "description": null,
                "position_link": "https://tinyurl.com/23sycgs6",
                "evaluation": 8.25,
                "coordinates": {
                    "lat": 41.7321728,
                    "lng": 12.283836
                }
            },
            {
                "id": 86,
                "name": "L'Ora Della Pizza",
                "description": null,
                "position_link": "https://link.mappytube.com/KgiZIH",
                "evaluation": 3.5,
                "coordinates": {
                    "lat": 41.848957,
                    "lng": 12.5917831
                }
            },
            {
                "id": 87,
                "name": "Pizza Fantasy: pizzeria al taglio in teglia e pizze tonde, da asporto e domicilio",
                "description": null,
                "position_link": "https://link.mappytube.com/gTjblO",
                "evaluation": 8.0,
                "coordinates": {
                    "lat": 41.8486152,
                    "lng": 12.5907304
                }
            },
            {
                "id": 88,
                "name": "Ponte Pizza Roma",
                "description": null,
                "position_link": "https://link.mappytube.com/hSYq4l",
                "evaluation": 6.75,
                "coordinates": {
                    "lat": 41.8530796,
                    "lng": 12.5897328
                }
            },
            {
                "id": 89,
                "name": "Pizza E Tradizione",
                "description": null,
                "position_link": "https://link.mappytube.com/Y9Z7AC",
                "evaluation": 5.0,
                "coordinates": {
                    "lat": 41.9242334,
                    "lng": 12.414279
                }
            },
            {
                "id": 90,
                "name": "Da Egidio 1970 | Pizza Rustica a Primavalle",
                "description": null,
                "position_link": "https://link.mappytube.com/osgA3B",
                "evaluation": 8.0,
                "coordinates": {
                    "lat": 41.9134711,
                    "lng": 12.412641
                }
            },
            {
                "id": 91,
                "name": "Fantasy Pizza",
                "description": null,
                "position_link": "https://link.mappytube.com/0Xdub8",
                "evaluation": 4.75,
                "coordinates": {
                    "lat": 41.782544,
                    "lng": 12.3646216
                }
            },
            {
                "id": 92,
                "name": "Pizza120 by Paganelli Alvaro",
                "description": null,
                "position_link": "https://link.mappytube.com/C24sZU",
                "evaluation": 5.5,
                "coordinates": {
                    "lat": 41.7802544,
                    "lng": 12.3669147
                }
            },
            {
                "id": 93,
                "name": "Voglia di pizza",
                "description": null,
                "position_link": "https://link.mappytube.com/fYauox",
                "evaluation": 8.25,
                "coordinates": {
                    "lat": 41.7782444,
                    "lng": 12.3493175
                }
            },
            {
                "id": 94,
                "name": "Mister Teglia",
                "description": null,
                "position_link": "https://link.mappytube.com/WbOjGR",
                "evaluation": 6.25,
                "coordinates": {
                    "lat": 41.9334395,
                    "lng": 12.5125604
                }
            },
            {
                "id": 95,
                "name": "Pizzeria a Taglio Angelo e Simonetta",
                "description": null,
                "position_link": "https://link.mappytube.com/rLBnlq",
                "evaluation": 9.25,
                "coordinates": {
                    "lat": 41.932672,
                    "lng": 12.5284827
                }
            }
        ],
        "Fritti Criminali": [
            {
                "id": 96,
                "name": "Panzerotti & Friends",
                "description": null,
                "position_link": "https://tinyurl.com/y4b4m7om",
                "evaluation": 7.75,
                "coordinates": {
                    "lat": 41.870239,
                    "lng": 12.528819
                }
            },
            {
                "id": 97,
                "name": "Bonci Pizzarium",
                "description": null,
                "position_link": "https://tinyurl.com/y5e5xn2d",
                "evaluation": 9.5,
                "coordinates": {
                    "lat": 41.906703,
                    "lng": 12.446686
                }
            },
            {
                "id": 98,
                "name": "I Gemelli della Pinsa",
                "description": null,
                "position_link": "https://tinyurl.com/yy3d2cwv",
                "evaluation": 8.75,
                "coordinates": {
                    "lat": 41.900548,
                    "lng": 12.566362
                }
            },
            {
                "id": 99,
                "name": "Dar Filettaro a Santa Barbara",
                "description": null,
                "position_link": "https://tinyurl.com/yxq3hw6a",
                "evaluation": 6.5,
                "coordinates": {
                    "lat": 41.89469,
                    "lng": 12.473686
                }
            },
            {
                "id": 100,
                "name": "Supplizio",
                "description": null,
                "position_link": "https://tinyurl.com/2cd268sp",
                "evaluation": 7.75,
                "coordinates": {
                    "lat": 41.897487,
                    "lng": 12.467911
                }
            },
            {
                "id": 101,
                "name": "Alari Roma",
                "description": null,
                "position_link": "https://tinyurl.com/28z5mej8",
                "evaluation": 5.0,
                "coordinates": {
                    "lat": 41.8757001,
                    "lng": 12.4671375
                }
            },
            {
                "id": 102,
                "name": "Trapizzino | Testaccio",
                "description": null,
                "position_link": "https://tinyurl.com/2789wcyp",
                "evaluation": 7.0,
                "coordinates": {
                    "lat": 41.8796102,
                    "lng": 12.4736352
                }
            },
            {
                "id": 103,
                "name": "I Fritti De Sora Milvia",
                "description": null,
                "position_link": "https://tinyurl.com/26vgdhbx",
                "evaluation": 7.5,
                "coordinates": {
                    "lat": 41.9379701,
                    "lng": 12.4660435
                }
            },
            {
                "id": 104,
                "name": "L\u2019asporto di 180grammi",
                "description": null,
                "position_link": "https://tinyurl.com/25ngjucl",
                "evaluation": 9.0,
                "coordinates": {
                    "lat": 41.87798,
                    "lng": 12.5639523
                }
            },
            {
                "id": 105,
                "name": "Sbanco",
                "description": null,
                "position_link": "https://tinyurl.com/29bhp4fd",
                "evaluation": 9.25,
                "coordinates": {
                    "lat": 41.875468,
                    "lng": 12.510995
                }
            }
        ],
        "Tramezzini Criminali": [
            {
                "id": 106,
                "name": "Il Re del Tramezzino",
                "description": null,
                "position_link": "https://tinyurl.com/y64o3g72",
                "evaluation": 5.5,
                "coordinates": {
                    "lat": 41.891406,
                    "lng": 12.498759
                }
            },
            {
                "id": 107,
                "name": "La Fonte del Tramezzino",
                "description": null,
                "position_link": "https://tinyurl.com/y5xx5kjd",
                "evaluation": 7.0,
                "coordinates": {
                    "lat": 41.873166,
                    "lng": 12.521059
                }
            },
            {
                "id": 108,
                "name": "Pasticceria Linari",
                "description": null,
                "position_link": "https://tinyurl.com/y5voyj59",
                "evaluation": 6.25,
                "coordinates": {
                    "lat": 41.879318,
                    "lng": 12.47482
                }
            },
            {
                "id": 109,
                "name": "Coffee House - Maurizio Lausi",
                "description": null,
                "position_link": "https://tinyurl.com/y24fpxwg",
                "evaluation": 6.0,
                "coordinates": {
                    "lat": 41.87935,
                    "lng": 12.478458
                }
            },
            {
                "id": 110,
                "name": "Pasticceria Barberini",
                "description": null,
                "position_link": "https://tinyurl.com/y3l6qnno",
                "evaluation": 7.75,
                "coordinates": {
                    "lat": 41.878979,
                    "lng": 12.478733
                }
            },
            {
                "id": 111,
                "name": "Pasticceria Caffetteria Luperini Rosena",
                "description": null,
                "position_link": "https://tinyurl.com/yxrkyvfx",
                "evaluation": 7.75,
                "coordinates": {
                    "lat": 41.935297,
                    "lng": 12.52905
                }
            },
            {
                "id": 112,
                "name": "Corsetti",
                "description": null,
                "position_link": "https://tinyurl.com/y25byo4f",
                "evaluation": 9.25,
                "coordinates": {
                    "lat": 41.886912,
                    "lng": 12.540337
                }
            },
            {
                "id": 113,
                "name": "La Casina del Caff\u00e8 - Mercato Trionfale",
                "description": null,
                "position_link": "https://tinyurl.com/y6dv8prg",
                "evaluation": 8.75,
                "coordinates": {
                    "lat": 41.909596,
                    "lng": 12.45261
                }
            },
            {
                "id": 114,
                "name": "Conca D'oro Roma",
                "description": null,
                "position_link": "https://tinyurl.com/y6bt7rvf",
                "evaluation": 8.75,
                "coordinates": {
                    "lat": 41.8315255,
                    "lng": 12.4623662
                }
            },
            {
                "id": 115,
                "name": "Bar Tomassini",
                "description": null,
                "position_link": "https://tinyurl.com/y4qejou9",
                "evaluation": 7.0,
                "coordinates": {
                    "lat": 41.8078781,
                    "lng": 12.4446224
                }
            },
            {
                "id": 116,
                "name": "Vigna Stelluti Pasticceria Bar",
                "description": null,
                "position_link": "https://tinyurl.com/y52srfzv",
                "evaluation": 1.0,
                "coordinates": {
                    "lat": 41.9473437,
                    "lng": 12.4665605
                }
            },
            {
                "id": 117,
                "name": "Cafeteria Spinelli",
                "description": null,
                "position_link": "https://tinyurl.com/y6s5r5qt",
                "evaluation": 6.25,
                "coordinates": {
                    "lat": 41.9288503,
                    "lng": 12.4627483
                }
            },
            {
                "id": 118,
                "name": "Caffe' Stella Ruschena",
                "description": null,
                "position_link": "https://tinyurl.com/y2awm3k5",
                "evaluation": 0.0,
                "coordinates": {
                    "lat": 41.9238797,
                    "lng": 12.4707101
                }
            },
            {
                "id": 119,
                "name": "Caff\u00e8 del Parco",
                "description": null,
                "position_link": "https://link.mappytube.com/obhrg0",
                "evaluation": 7.25,
                "coordinates": {
                    "lat": 41.94406,
                    "lng": 12.5687996
                }
            },
            {
                "id": 120,
                "name": "Dani Bar",
                "description": null,
                "position_link": "https://link.mappytube.com/0fn8ay",
                "evaluation": 7.5,
                "coordinates": {
                    "lat": 41.9412355,
                    "lng": 12.57541
                }
            }
        ],
        "Maritozzi Criminali": [
            {
                "id": 121,
                "name": "Il Maritozzaro",
                "description": null,
                "position_link": "https://tinyurl.com/y542znax",
                "evaluation": 8.0,
                "coordinates": {
                    "lat": 41.873207,
                    "lng": 12.467288
                }
            },
            {
                "id": 122,
                "name": "Cristalli di Zucchero",
                "description": null,
                "position_link": "https://tinyurl.com/y4ebpkaa",
                "evaluation": 6.0,
                "coordinates": {
                    "lat": 41.869324,
                    "lng": 12.446694
                }
            },
            {
                "id": 123,
                "name": "Pasticceria Bar Romoli",
                "description": null,
                "position_link": "https://tinyurl.com/yxjf8qxq",
                "evaluation": 8.75,
                "coordinates": {
                    "lat": 41.928485,
                    "lng": 12.516196
                }
            },
            {
                "id": 124,
                "name": "Regoli Pasticceria",
                "description": null,
                "position_link": "https://tinyurl.com/y53lds7h",
                "evaluation": 9.25,
                "coordinates": {
                    "lat": 41.894817,
                    "lng": 12.500949
                }
            },
            {
                "id": 125,
                "name": "Panificio Bonci Roma",
                "description": null,
                "position_link": "https://tinyurl.com/y6yhx3le",
                "evaluation": 9.5,
                "coordinates": {
                    "lat": 41.911562,
                    "lng": 12.453661
                }
            },
            {
                "id": 126,
                "name": "Monte Gennaro Caff\u00e8",
                "description": null,
                "position_link": "https://tinyurl.com/y36dkmff",
                "evaluation": 6.5,
                "coordinates": {
                    "lat": 41.9454934,
                    "lng": 12.538253
                }
            },
            {
                "id": 127,
                "name": "Lo Zio d'America",
                "description": null,
                "position_link": "https://tinyurl.com/y4b4zz34",
                "evaluation": 6.0,
                "coordinates": {
                    "lat": 41.9436545,
                    "lng": 12.5480626
                }
            },
            {
                "id": 128,
                "name": "Lo Spuntino Ristobar",
                "description": null,
                "position_link": "https://tinyurl.com/y5e4uxds",
                "evaluation": 7.5,
                "coordinates": {
                    "lat": 41.9714562,
                    "lng": 12.4332929
                }
            },
            {
                "id": 129,
                "name": "Wine Bar De' Penitenzieri",
                "description": null,
                "position_link": "https://tinyurl.com/y3n4bsdc",
                "evaluation": 8.0,
                "coordinates": {
                    "lat": 41.9012103,
                    "lng": 12.4608059
                }
            },
            {
                "id": 130,
                "name": "L'angolo del Tramezzino",
                "description": null,
                "position_link": "https://tinyurl.com/y3s942a6",
                "evaluation": 7.0,
                "coordinates": {
                    "lat": 41.9166486,
                    "lng": 12.5257832
                }
            }
        ],
        "Forni Criminali": [
            {
                "id": 131,
                "name": "L'Antica Panetteria",
                "description": null,
                "position_link": "https://tinyurl.com/y5qqbq9n",
                "evaluation": 7.0,
                "coordinates": {
                    "lat": 41.934888,
                    "lng": 12.514358
                }
            },
            {
                "id": 132,
                "name": "Specialit\u00e0 Del Forno E Della Tavola",
                "description": null,
                "position_link": "https://tinyurl.com/y2eb4jnl",
                "evaluation": 6.0,
                "coordinates": {
                    "lat": 41.934473,
                    "lng": 12.512064
                }
            },
            {
                "id": 133,
                "name": "Il Gusto del Pane",
                "description": null,
                "position_link": "https://tinyurl.com/y57utbwc",
                "evaluation": 5.75,
                "coordinates": {
                    "lat": 41.926408,
                    "lng": 12.515631
                }
            },
            {
                "id": 134,
                "name": "Pane e Pazienza",
                "description": null,
                "position_link": "https://tinyurl.com/yxc27k7e",
                "evaluation": 7.5,
                "coordinates": {
                    "lat": 41.862713,
                    "lng": 12.453955
                }
            },
            {
                "id": 135,
                "name": "Albanesi",
                "description": null,
                "position_link": "https://tinyurl.com/yxuunyhp",
                "evaluation": 9.25,
                "coordinates": {
                    "lat": 41.863412,
                    "lng": 12.46868
                }
            },
            {
                "id": 136,
                "name": "Vapoforno Frillocchi",
                "description": null,
                "position_link": "https://tinyurl.com/y56hu37q",
                "evaluation": 7.75,
                "coordinates": {
                    "lat": 41.896784,
                    "lng": 12.538503
                }
            },
            {
                "id": 137,
                "name": "Lo Sfizio",
                "description": null,
                "position_link": "https://tinyurl.com/y44csb2y",
                "evaluation": 5.5,
                "coordinates": {
                    "lat": 41.892202,
                    "lng": 12.547642
                }
            },
            {
                "id": 138,
                "name": "Il Fornaio Di Tor Tre Teste",
                "description": null,
                "position_link": "https://tinyurl.com/y6c44mxe",
                "evaluation": 9.0,
                "coordinates": {
                    "lat": 41.893594,
                    "lng": 12.585779
                }
            },
            {
                "id": 139,
                "name": "Farinando Roma",
                "description": null,
                "position_link": "https://tinyurl.com/y3jqrew5",
                "evaluation": 7.5,
                "coordinates": {
                    "lat": 41.878937,
                    "lng": 12.477851
                }
            },
            {
                "id": 140,
                "name": "Forno Magic Roma",
                "description": null,
                "position_link": "https://tinyurl.com/y39hay5h",
                "evaluation": 6.0,
                "coordinates": {
                    "lat": 41.87966,
                    "lng": 12.476163
                }
            },
            {
                "id": 141,
                "name": "Panificio Passi",
                "description": null,
                "position_link": "https://tinyurl.com/y5drdzhy",
                "evaluation": 5.0,
                "coordinates": {
                    "lat": 41.880252,
                    "lng": 12.476273
                }
            },
            {
                "id": 142,
                "name": "Forno Dolce Forno Roma",
                "description": null,
                "position_link": "https://tinyurl.com/yxgprwyp",
                "evaluation": 7.0,
                "coordinates": {
                    "lat": 41.912762,
                    "lng": 12.520535
                }
            },
            {
                "id": 143,
                "name": "Forno Lucarelli Roma",
                "description": null,
                "position_link": "https://tinyurl.com/yxbl2p4v",
                "evaluation": 7.0,
                "coordinates": {
                    "lat": 41.912864,
                    "lng": 12.523284
                }
            },
            {
                "id": 144,
                "name": "Panis 1890",
                "description": null,
                "position_link": "https://tinyurl.com/yygcxkpk",
                "evaluation": 8.5,
                "coordinates": {
                    "lat": 41.921022,
                    "lng": 12.504541
                }
            },
            {
                "id": 145,
                "name": "Bakery M",
                "description": null,
                "position_link": "https://tinyurl.com/y5tykp68",
                "evaluation": 8.5,
                "coordinates": {
                    "lat": 41.932509,
                    "lng": 12.519835
                }
            },
            {
                "id": 146,
                "name": "Grezzo",
                "description": null,
                "position_link": "https://tinyurl.com/yxo9dsc8",
                "evaluation": 7.5,
                "coordinates": {
                    "lat": 41.879963,
                    "lng": 12.502664
                }
            },
            {
                "id": 147,
                "name": "I Vecchi Sapori",
                "description": null,
                "position_link": "https://tinyurl.com/y345fd7f",
                "evaluation": 5.75,
                "coordinates": {
                    "lat": 41.881471,
                    "lng": 12.501334
                }
            },
            {
                "id": 148,
                "name": "Forno Di Giannantonio",
                "description": null,
                "position_link": "https://tinyurl.com/y4wyb6ua",
                "evaluation": 5.0,
                "coordinates": {
                    "lat": 41.88024,
                    "lng": 12.512062
                }
            },
            {
                "id": 149,
                "name": "Dolce e Salato",
                "description": null,
                "position_link": "https://tinyurl.com/yy99jjhk",
                "evaluation": 8.25,
                "coordinates": {
                    "lat": 41.945058,
                    "lng": 12.528561
                }
            },
            {
                "id": 150,
                "name": "Forno Quattro Venti",
                "description": null,
                "position_link": "https://tinyurl.com/2eyscbk8",
                "evaluation": 7.0,
                "coordinates": {
                    "lat": 41.8838304,
                    "lng": 12.4587958
                }
            },
            {
                "id": 151,
                "name": "Panificio Beti",
                "description": null,
                "position_link": "https://tinyurl.com/2kjuf4zk",
                "evaluation": 7.5,
                "coordinates": {
                    "lat": 41.8844583,
                    "lng": 12.4598389
                }
            },
            {
                "id": 152,
                "name": "Cose Buone dal Forno - Trevisiol",
                "description": null,
                "position_link": "https://tinyurl.com/2zmfn7ds",
                "evaluation": 7.0,
                "coordinates": {
                    "lat": 41.867616,
                    "lng": 12.4479212
                }
            },
            {
                "id": 153,
                "name": "Compagnia del Pane Roma",
                "description": null,
                "position_link": "https://tinyurl.com/2qtdjux9",
                "evaluation": 5.0,
                "coordinates": {
                    "lat": 41.8616667,
                    "lng": 12.4436111
                }
            },
            {
                "id": 154,
                "name": "Nonno Lino",
                "description": null,
                "position_link": "https://tinyurl.com/2gat37q3",
                "evaluation": 8.5,
                "coordinates": {
                    "lat": 41.8491451,
                    "lng": 12.4587013
                }
            },
            {
                "id": 155,
                "name": "Panificio Mare'",
                "description": null,
                "position_link": "https://tinyurl.com/2b4yw4bv",
                "evaluation": 8.0,
                "coordinates": {
                    "lat": 41.85866,
                    "lng": 12.4920563
                }
            },
            {
                "id": 156,
                "name": "La Fornarina",
                "description": null,
                "position_link": "https://tinyurl.com/25k9ldec",
                "evaluation": 5.0,
                "coordinates": {
                    "lat": 41.860391,
                    "lng": 12.4939789
                }
            },
            {
                "id": 157,
                "name": "Pane Garbato",
                "description": null,
                "position_link": "https://tinyurl.com/2ysracoo",
                "evaluation": 9.0,
                "coordinates": {
                    "lat": 41.8670368,
                    "lng": 12.4867886
                }
            },
            {
                "id": 158,
                "name": "Mancini il Forno (Via Niccodemi Talenti)",
                "description": null,
                "position_link": "https://tinyurl.com/258y6br4",
                "evaluation": 8.75,
                "coordinates": {
                    "lat": 41.9520542,
                    "lng": 12.5476723
                }
            },
            {
                "id": 159,
                "name": "Faripan Srl",
                "description": null,
                "position_link": "https://tinyurl.com/23y56oxn",
                "evaluation": 7.0,
                "coordinates": {
                    "lat": 41.9517517,
                    "lng": 12.5466954
                }
            },
            {
                "id": 160,
                "name": "Forno Malatesta",
                "description": null,
                "position_link": "https://tinyurl.com/2cwrsesh",
                "evaluation": 7.0,
                "coordinates": {
                    "lat": 41.8870909,
                    "lng": 12.5418553
                }
            },
            {
                "id": 161,
                "name": "Bakery M Caff\u00e8",
                "description": null,
                "position_link": "https://tinyurl.com/27clbub2",
                "evaluation": 6.25,
                "coordinates": {
                    "lat": 41.8805617,
                    "lng": 12.5407131
                }
            },
            {
                "id": 162,
                "name": "Fatti di Farina Old Bakery Roma",
                "description": null,
                "position_link": "https://tinyurl.com/2b43mvxn",
                "evaluation": 9.5,
                "coordinates": {
                    "lat": 41.8794132,
                    "lng": 12.5412985
                }
            },
            {
                "id": 163,
                "name": "Panificio Sara",
                "description": null,
                "position_link": "https://link.mappytube.com/ZirGz5",
                "evaluation": 7.25,
                "coordinates": {
                    "lat": 41.8833403,
                    "lng": 12.5144141
                }
            },
            {
                "id": 164,
                "name": "Forno Ciabattini Roma",
                "description": null,
                "position_link": "https://link.mappytube.com/x9RmHZ",
                "evaluation": 7.25,
                "coordinates": {
                    "lat": 41.8893479,
                    "lng": 12.5133208
                }
            },
            {
                "id": 165,
                "name": "Gran Forno Procaccini Roma",
                "description": null,
                "position_link": "https://link.mappytube.com/jK8DT8",
                "evaluation": 8.5,
                "coordinates": {
                    "lat": 41.8837126,
                    "lng": 12.5224583
                }
            },
            {
                "id": 166,
                "name": "Ambrosini Umberto",
                "description": null,
                "position_link": "https://link.mappytube.com/7PaQzi",
                "evaluation": 5.0,
                "coordinates": {
                    "lat": 41.8815735,
                    "lng": 12.460481
                }
            },
            {
                "id": 167,
                "name": "Prelibato",
                "description": null,
                "position_link": "https://link.mappytube.com/by14xh",
                "evaluation": 4.75,
                "coordinates": {
                    "lat": 41.8774469,
                    "lng": 12.4579137
                }
            },
            {
                "id": 168,
                "name": "Euroforno",
                "description": null,
                "position_link": "https://link.mappytube.com/CZhvmT",
                "evaluation": 8.0,
                "coordinates": {
                    "lat": 41.8768216,
                    "lng": 12.5245534
                }
            },
            {
                "id": 169,
                "name": "Pane ciociaro cotto a legna di Sanna Paolo",
                "description": null,
                "position_link": "https://link.mappytube.com/xevKYn",
                "evaluation": 6.5,
                "coordinates": {
                    "lat": 41.8745828,
                    "lng": 12.5227778
                }
            },
            {
                "id": 170,
                "name": "Cuore di Grano",
                "description": null,
                "position_link": "https://link.mappytube.com/otYTSJ",
                "evaluation": 10.0,
                "coordinates": {
                    "lat": 41.8685359,
                    "lng": 12.527077
                }
            },
            {
                "id": 171,
                "name": "Forno Nonno Franco",
                "description": null,
                "position_link": "https://link.mappytube.com/ZCqH04",
                "evaluation": 7.0,
                "coordinates": {
                    "lat": 41.9259861,
                    "lng": 12.4893625
                }
            },
            {
                "id": 172,
                "name": "Panificio Mosca",
                "description": null,
                "position_link": "https://link.mappytube.com/FXVptU",
                "evaluation": 6.0,
                "coordinates": {
                    "lat": 41.9085824,
                    "lng": 12.4543316
                }
            },
            {
                "id": 173,
                "name": "Lo Sfilatino - pane,pizza e dolci",
                "description": null,
                "position_link": "https://link.mappytube.com/2oLbeQ",
                "evaluation": 4.75,
                "coordinates": {
                    "lat": 41.9132549,
                    "lng": 12.4513243
                }
            }
        ],
        "Kebab Criminali": [
            {
                "id": 174,
                "name": "Al Basha er Kebbabaro",
                "description": null,
                "position_link": "https://tinyurl.com/y6tg3422",
                "evaluation": 8.0,
                "coordinates": {
                    "lat": 41.939805,
                    "lng": 12.527703
                }
            },
            {
                "id": 175,
                "name": "Istanbul kebab",
                "description": null,
                "position_link": "https://tinyurl.com/y6kgx8ft",
                "evaluation": 6.5,
                "coordinates": {
                    "lat": 41.933917,
                    "lng": 12.529945
                }
            },
            {
                "id": 176,
                "name": "Fior di Pizza - Pizzeria Tavola Calda",
                "description": null,
                "position_link": "https://tinyurl.com/y5eyfwz9",
                "evaluation": 3.0,
                "coordinates": {
                    "lat": 41.935645,
                    "lng": 12.534821
                }
            },
            {
                "id": 177,
                "name": "Ali Bab\u00e0 Roma",
                "description": null,
                "position_link": "https://tinyurl.com/yybearuy",
                "evaluation": 6.75,
                "coordinates": {
                    "lat": 41.867078,
                    "lng": 12.537304
                }
            },
            {
                "id": 178,
                "name": "Pizzeria Kebab Roma",
                "description": null,
                "position_link": "https://tinyurl.com/y69b64h9",
                "evaluation": 8.5,
                "coordinates": {
                    "lat": 41.822649,
                    "lng": 12.479821
                }
            },
            {
                "id": 179,
                "name": "Kebab",
                "description": null,
                "position_link": "https://tinyurl.com/yxt2morm",
                "evaluation": 5.75,
                "coordinates": {
                    "lat": 41.910126,
                    "lng": 12.499083
                }
            },
            {
                "id": 180,
                "name": "Shawarma Station",
                "description": null,
                "position_link": "https://tinyurl.com/y3xcq966",
                "evaluation": 7.25,
                "coordinates": {
                    "lat": 41.896138,
                    "lng": 12.499397
                }
            },
            {
                "id": 181,
                "name": "Kebab Siria",
                "description": null,
                "position_link": "https://tinyurl.com/y4ehvsfh",
                "evaluation": 7.5,
                "coordinates": {
                    "lat": 41.934712,
                    "lng": 12.511745
                }
            },
            {
                "id": 182,
                "name": "Istanbul Kebab",
                "description": null,
                "position_link": "https://tinyurl.com/y6kesvxr",
                "evaluation": 6.25,
                "coordinates": {
                    "lat": 41.8569229,
                    "lng": 12.479003
                }
            },
            {
                "id": 183,
                "name": "Caf\u00e8 Istanbul Kebab",
                "description": null,
                "position_link": "https://tinyurl.com/y68ep3u8",
                "evaluation": 6.5,
                "coordinates": {
                    "lat": 41.8624483,
                    "lng": 12.46437
                }
            },
            {
                "id": 184,
                "name": "Kebab station",
                "description": null,
                "position_link": "https://tinyurl.com/yyp3tosg",
                "evaluation": 7.5,
                "coordinates": {
                    "lat": 41.8737543,
                    "lng": 12.4654586
                }
            },
            {
                "id": 185,
                "name": "Pizza Nader",
                "description": null,
                "position_link": "https://tinyurl.com/y2edhwpn",
                "evaluation": 8.75,
                "coordinates": {
                    "lat": 41.8347454,
                    "lng": 12.5038675
                }
            },
            {
                "id": 186,
                "name": "istanbul kebab",
                "description": null,
                "position_link": "https://tinyurl.com/y3mz2k2r",
                "evaluation": 6.75,
                "coordinates": {
                    "lat": 41.8602812,
                    "lng": 12.5566029
                }
            },
            {
                "id": 187,
                "name": "Kebabone",
                "description": null,
                "position_link": "https://tinyurl.com/y4r9xfng",
                "evaluation": 9.0,
                "coordinates": {
                    "lat": 41.8875737,
                    "lng": 12.5425071
                }
            },
            {
                "id": 188,
                "name": "Kebab maroc",
                "description": null,
                "position_link": "https://tinyurl.com/y5zez66r",
                "evaluation": 7.0,
                "coordinates": {
                    "lat": 41.9035876,
                    "lng": 12.5898092
                }
            }
        ],
        "Gelati Criminali": [
            {
                "id": 189,
                "name": "Cremeria Alpi Garbatella",
                "description": null,
                "position_link": "https://tinyurl.com/y242fvsc",
                "evaluation": 8.0,
                "coordinates": {
                    "lat": 41.866469,
                    "lng": 12.493008
                }
            },
            {
                "id": 190,
                "name": "Gelateria Artigianale - Il Pellicano",
                "description": null,
                "position_link": "https://tinyurl.com/y2xvu9qs",
                "evaluation": 5.75,
                "coordinates": {
                    "lat": 41.866768,
                    "lng": 12.489878
                }
            },
            {
                "id": 191,
                "name": "Gelato Baciato",
                "description": null,
                "position_link": "https://tinyurl.com/y6lj85kf",
                "evaluation": 8.75,
                "coordinates": {
                    "lat": 41.860717,
                    "lng": 12.486106
                }
            },
            {
                "id": 192,
                "name": "Gelateria La Romana",
                "description": null,
                "position_link": "https://tinyurl.com/yyl3gpza",
                "evaluation": 6.5,
                "coordinates": {
                    "lat": 41.872158,
                    "lng": 12.479862
                }
            },
            {
                "id": 193,
                "name": "Lubrano",
                "description": null,
                "position_link": "https://tinyurl.com/yypvn239",
                "evaluation": 8.5,
                "coordinates": {
                    "lat": 41.881898,
                    "lng": 12.5668729
                }
            },
            {
                "id": 194,
                "name": "Grost\u00e8 Gelateria Artigianale",
                "description": null,
                "position_link": "https://tinyurl.com/y4gwznu3",
                "evaluation": 6.25,
                "coordinates": {
                    "lat": 41.888183,
                    "lng": 12.565692
                }
            },
            {
                "id": 195,
                "name": "Buono Cosi Gelateria Naturale Roma",
                "description": null,
                "position_link": "https://tinyurl.com/y4dzcua7",
                "evaluation": 9.5,
                "coordinates": {
                    "lat": 41.8854068,
                    "lng": 12.5675979
                }
            },
            {
                "id": 196,
                "name": "Gelateria Tony",
                "description": null,
                "position_link": "https://tinyurl.com/y4f5k5gt",
                "evaluation": 5.0,
                "coordinates": {
                    "lat": 41.8665042,
                    "lng": 12.4443745
                }
            },
            {
                "id": 197,
                "name": "Mucca Bianca Gelateria",
                "description": null,
                "position_link": "https://tinyurl.com/y6xk88z2",
                "evaluation": 5.5,
                "coordinates": {
                    "lat": 41.8630104,
                    "lng": 12.4428117
                }
            },
            {
                "id": 198,
                "name": "Stefano Ferrara Gelato Lab",
                "description": null,
                "position_link": "https://tinyurl.com/yyu4qdos",
                "evaluation": 8.75,
                "coordinates": {
                    "lat": 41.8772214,
                    "lng": 12.4303634
                }
            },
            {
                "id": 199,
                "name": "La Gourmandise",
                "description": null,
                "position_link": "https://tinyurl.com/yxpofmmz",
                "evaluation": 9.5,
                "coordinates": {
                    "lat": 41.878961,
                    "lng": 12.4622543
                }
            },
            {
                "id": 200,
                "name": "Torc\u00e8",
                "description": null,
                "position_link": "https://tinyurl.com/2xuowqyd",
                "evaluation": 9.0,
                "coordinates": {
                    "lat": 41.8814305,
                    "lng": 12.4857652
                }
            },
            {
                "id": 201,
                "name": "Gelateria Panna & Co - Gelato Naturale",
                "description": null,
                "position_link": "https://tinyurl.com/273gbkar",
                "evaluation": 8.5,
                "coordinates": {
                    "lat": 41.8804726,
                    "lng": 12.4775984
                }
            },
            {
                "id": 202,
                "name": "Giolitti",
                "description": null,
                "position_link": "https://tinyurl.com/28k7da22",
                "evaluation": 4.5,
                "coordinates": {
                    "lat": 41.881833,
                    "lng": 12.475828
                }
            },
            {
                "id": 203,
                "name": "Rivareno Gelato",
                "description": null,
                "position_link": "https://link.mappytube.com/pE2L67",
                "evaluation": 8.0,
                "coordinates": {
                    "lat": 41.8846257,
                    "lng": 12.5095886
                }
            },
            {
                "id": 204,
                "name": "Fatamorgana Trastevere",
                "description": null,
                "position_link": "https://link.mappytube.com/ngiV0h",
                "evaluation": 8.75,
                "coordinates": {
                    "lat": 41.8865059,
                    "lng": 12.4691714
                }
            }
        ],
        "Panini Criminali": [
            {
                "id": 205,
                "name": "McDonald's Roma Termini Forum",
                "description": null,
                "position_link": null,
                "evaluation": 2.0,
                "coordinates": {
                    "lat": 41.8850207,
                    "lng": 12.4466774
                }
            },
            {
                "id": 206,
                "name": "Burger King Tiburtina",
                "description": null,
                "position_link": null,
                "evaluation": 2.0,
                "coordinates": {
                    "lat": 41.8849353,
                    "lng": 12.4427673
                }
            },
            {
                "id": 207,
                "name": "Bfr Gianicolense",
                "description": null,
                "position_link": "https://tinyurl.com/yxzrwfld",
                "evaluation": 7.0,
                "coordinates": {
                    "lat": 41.8773743,
                    "lng": 12.4429225
                }
            },
            {
                "id": 208,
                "name": "Ciccio's Food Marconi",
                "description": null,
                "position_link": "https://tinyurl.com/y5gorp8l",
                "evaluation": 7.0,
                "coordinates": {
                    "lat": 41.8711938,
                    "lng": 12.4679726
                }
            },
            {
                "id": 209,
                "name": "Mi'Ndujo - Ponte Milvio",
                "description": null,
                "position_link": "https://tinyurl.com/225ngpg7",
                "evaluation": 8.0,
                "coordinates": {
                    "lat": 41.9367692,
                    "lng": 12.4657754
                }
            },
            {
                "id": 210,
                "name": "King Panino",
                "description": null,
                "position_link": "https://tinyurl.com/24famjxo",
                "evaluation": 5.0,
                "coordinates": {
                    "lat": 41.9365731,
                    "lng": 12.4654812
                }
            },
            {
                "id": 211,
                "name": "Roma Beer Company",
                "description": null,
                "position_link": "https://tinyurl.com/2c6r9ktn",
                "evaluation": 7.0,
                "coordinates": {
                    "lat": 41.9373664,
                    "lng": 12.4666862
                }
            },
            {
                "id": 212,
                "name": "Burgers-Macelleria Cucchi dal 1967(centocelle)",
                "description": null,
                "position_link": "https://tinyurl.com/29am7lpw",
                "evaluation": 8.5,
                "coordinates": {
                    "lat": 41.8880741,
                    "lng": 12.5657861
                }
            },
            {
                "id": 213,
                "name": "Legs",
                "description": null,
                "position_link": "https://tinyurl.com/2y3oaw6z",
                "evaluation": 5.5,
                "coordinates": {
                    "lat": 41.8897146,
                    "lng": 12.5632835
                }
            },
            {
                "id": 214,
                "name": "Banana Food & Game Paninoteca",
                "description": null,
                "position_link": "https://tinyurl.com/2cq4fqte",
                "evaluation": 10.0,
                "coordinates": {
                    "lat": 41.8867592,
                    "lng": 12.5665929
                }
            },
            {
                "id": 215,
                "name": "Nonna Rosetta",
                "description": null,
                "position_link": "https://tinyurl.com/22ohmkds",
                "evaluation": 6.5,
                "coordinates": {
                    "lat": 41.9446102,
                    "lng": 12.5476295
                }
            },
            {
                "id": 216,
                "name": "I Panizzeri",
                "description": null,
                "position_link": "https://tinyurl.com/2y4cf42o",
                "evaluation": 8.5,
                "coordinates": {
                    "lat": 41.9677978,
                    "lng": 12.5367542
                }
            },
            {
                "id": 217,
                "name": "The Butcher Shop",
                "description": null,
                "position_link": "https://tinyurl.com/2bxgprsj",
                "evaluation": 7.75,
                "coordinates": {
                    "lat": 41.9354459,
                    "lng": 12.5363499
                }
            },
            {
                "id": 218,
                "name": "California Cookhouse",
                "description": null,
                "position_link": "https://tinyurl.com/2xm8pkul",
                "evaluation": 8.5,
                "coordinates": {
                    "lat": 41.9385487,
                    "lng": 12.5329194
                }
            },
            {
                "id": 219,
                "name": "Birretta wine and food - Hamburgeria",
                "description": null,
                "position_link": "https://tinyurl.com/23beo4rb",
                "evaluation": 8.0,
                "coordinates": {
                    "lat": 41.9124159,
                    "lng": 12.4563726
                }
            },
            {
                "id": 220,
                "name": "200 Gradi",
                "description": null,
                "position_link": "https://tinyurl.com/28n29ls3",
                "evaluation": 8.0,
                "coordinates": {
                    "lat": 41.9064553,
                    "lng": 12.4565817
                }
            },
            {
                "id": 221,
                "name": "Panino Divino",
                "description": null,
                "position_link": "https://tinyurl.com/27zbbq7e",
                "evaluation": 6.5,
                "coordinates": {
                    "lat": 41.90692,
                    "lng": 12.4583961
                }
            },
            {
                "id": 222,
                "name": "Burgez",
                "description": null,
                "position_link": "https://tinyurl.com/253azwwq",
                "evaluation": 6.5,
                "coordinates": {
                    "lat": 41.9087185,
                    "lng": 12.4548855
                }
            },
            {
                "id": 223,
                "name": "Ninkasi",
                "description": null,
                "position_link": "https://tinyurl.com/279763o6",
                "evaluation": 7.75,
                "coordinates": {
                    "lat": 41.8882221,
                    "lng": 12.5188916
                }
            },
            {
                "id": 224,
                "name": "Franz Burger",
                "description": null,
                "position_link": "https://tinyurl.com/2yyekojf",
                "evaluation": 8.75,
                "coordinates": {
                    "lat": 41.8871522,
                    "lng": 12.5197281
                }
            },
            {
                "id": 225,
                "name": "Ninkasi",
                "description": null,
                "position_link": "https://link.mappytube.com/fvoLdw",
                "evaluation": 7.75,
                "coordinates": {
                    "lat": 41.8882221,
                    "lng": 12.5188916
                }
            },
            {
                "id": 226,
                "name": "Franz Burger",
                "description": null,
                "position_link": "https://link.mappytube.com/NztFdi",
                "evaluation": 8.75,
                "coordinates": {
                    "lat": 41.8871522,
                    "lng": 12.5197281
                }
            },
            {
                "id": 227,
                "name": "Magic Bun",
                "description": null,
                "position_link": "https://link.mappytube.com/EVVymN",
                "evaluation": 7.5,
                "coordinates": {
                    "lat": 41.8673939,
                    "lng": 12.4654917
                }
            },
            {
                "id": 228,
                "name": "Via Corinto, 56",
                "description": null,
                "position_link": "https://link.mappytube.com/6vhIDK",
                "evaluation": 8.0,
                "coordinates": {
                    "lat": 41.8539502,
                    "lng": 12.4754513
                }
            },
            {
                "id": 229,
                "name": "Burger Wave Roma",
                "description": null,
                "position_link": "https://link.mappytube.com/wfRRTG",
                "evaluation": 7.5,
                "coordinates": {
                    "lat": 41.851815,
                    "lng": 12.478924
                }
            }
        ],
        "Franchino on Tour Criminale": [
            {
                "id": 230,
                "name": "Il Bufalo Trippone",
                "description": null,
                "position_link": "https://tinyurl.com/2adnz5z7",
                "evaluation": 8.0,
                "coordinates": {
                    "lat": 43.7698364,
                    "lng": 11.2584839
                }
            },
            {
                "id": 231,
                "name": "Lo Schiacciavino",
                "description": null,
                "position_link": "https://tinyurl.com/29an6n7g",
                "evaluation": 8.0,
                "coordinates": {
                    "lat": 43.7694944,
                    "lng": 11.261053
                }
            },
            {
                "id": 232,
                "name": "La Fettunta",
                "description": null,
                "position_link": "https://tinyurl.com/26khkozl",
                "evaluation": 6.5,
                "coordinates": {
                    "lat": 43.7684555,
                    "lng": 11.2574861
                }
            },
            {
                "id": 233,
                "name": "All\u2019Antico Vinaio",
                "description": null,
                "position_link": "https://tinyurl.com/29rs2o7t",
                "evaluation": 6.5,
                "coordinates": {
                    "lat": 43.7684851,
                    "lng": 11.2574377
                }
            },
            {
                "id": 234,
                "name": "SAPORI TOSCANI STREET FOOD",
                "description": null,
                "position_link": "https://tinyurl.com/2yaklkrr",
                "evaluation": 8.5,
                "coordinates": {
                    "lat": 43.7713944,
                    "lng": 11.2608328
                }
            },
            {
                "id": 235,
                "name": "La Cucina del Perugino",
                "description": null,
                "position_link": "https://tinyurl.com/24jrc68z",
                "evaluation": 4.5,
                "coordinates": {
                    "lat": 43.1064728,
                    "lng": 12.3914579
                }
            },
            {
                "id": 236,
                "name": "Testone - Via Settevalli",
                "description": null,
                "position_link": "https://tinyurl.com/22quzfgj",
                "evaluation": 7.0,
                "coordinates": {
                    "lat": 43.0764774,
                    "lng": 12.3638087
                }
            },
            {
                "id": 237,
                "name": "Cukuc",
                "description": null,
                "position_link": "https://tinyurl.com/27n3rbqt",
                "evaluation": 7.0,
                "coordinates": {
                    "lat": 43.0757375,
                    "lng": 12.3647987
                }
            },
            {
                "id": 238,
                "name": "Faliero Torta De La Maria",
                "description": null,
                "position_link": "https://tinyurl.com/24wv8d5y",
                "evaluation": 7.5,
                "coordinates": {
                    "lat": 43.0871069,
                    "lng": 12.1860008
                }
            },
            {
                "id": 239,
                "name": "Pizzeria Pellone",
                "description": null,
                "position_link": "https://tinyurl.com/25qpmt8b\n",
                "evaluation": 7.0,
                "coordinates": {
                    "lat": 40.8561618,
                    "lng": 14.2741284
                }
            },
            {
                "id": 240,
                "name": "Di Matteo",
                "description": null,
                "position_link": "https://tinyurl.com/297vgg4b",
                "evaluation": 8.5,
                "coordinates": {
                    "lat": 40.8512512,
                    "lng": 14.2579677
                }
            },
            {
                "id": 241,
                "name": "Pizzeria I Decumani",
                "description": null,
                "position_link": "https://tinyurl.com/229w7r5c",
                "evaluation": 9.0,
                "coordinates": {
                    "lat": 40.850894,
                    "lng": 14.2568155
                }
            },
            {
                "id": 242,
                "name": "Antica Pizza Fritta da Zia Esterina Sorbillo",
                "description": null,
                "position_link": "https://tinyurl.com/2pambda3",
                "evaluation": 6.75,
                "coordinates": {
                    "lat": 40.8374941,
                    "lng": 14.2482712
                }
            },
            {
                "id": 243,
                "name": "Fiorenzano pizzeria trattoria",
                "description": null,
                "position_link": "https://tinyurl.com/2ocqp4t6",
                "evaluation": 8.5,
                "coordinates": {
                    "lat": 40.837647,
                    "lng": 14.2482845
                }
            },
            {
                "id": 244,
                "name": "La Vera Pizza Fritta da Gennaro",
                "description": null,
                "position_link": "https://tinyurl.com/2hamur4g",
                "evaluation": 8.5,
                "coordinates": {
                    "lat": 40.8440605,
                    "lng": 14.2482318
                }
            },
            {
                "id": 245,
                "name": "Pintauro",
                "description": null,
                "position_link": "https://tinyurl.com/2b7g4uvr",
                "evaluation": 9.0,
                "coordinates": {
                    "lat": 40.8393062,
                    "lng": 14.2483
                }
            },
            {
                "id": 246,
                "name": "Pasticceria Giovanni Scaturchio",
                "description": null,
                "position_link": "https://tinyurl.com/24o4lzad",
                "evaluation": 9.25,
                "coordinates": {
                    "lat": 40.8482509,
                    "lng": 14.2549272
                }
            },
            {
                "id": 247,
                "name": "Carraturo",
                "description": null,
                "position_link": "https://tinyurl.com/25pedkb6",
                "evaluation": 8.0,
                "coordinates": {
                    "lat": 40.8485608,
                    "lng": 14.2556432
                }
            }
        ]
    },
    "created_at": 1661004201.147137
}